{
"type": "FeatureCollection",
"name": "pasar",
"crs": { "type": "name", "properties": { "name": "urn:ogc:def:crs:OGC::CRS84" } },
"features": [
{ "type": "Feature", "properties": { "fid": 948.0, "osm_id": "1937522021", "code": 2016, "fclass": "marketplace", "name": "Pasar Tamin" }, "geometry": { "type": "Point", "coordinates": [ 105.2474678, -5.4106888 ] } },
{ "type": "Feature", "properties": { "fid": 1340.0, "osm_id": "2494588212", "code": 2016, "fclass": "marketplace", "name": "Pasar Pulung Kencana" }, "geometry": { "type": "Point", "coordinates": [ 105.1037979, -4.5906059 ] } },
{ "type": "Feature", "properties": { "fid": 1358.0, "osm_id": "2506833377", "code": 2016, "fclass": "marketplace", "name": "Pasar Panaragan" }, "geometry": { "type": "Point", "coordinates": [ 105.0897963, -4.5214711 ] } },
{ "type": "Feature", "properties": { "fid": 1698.0, "osm_id": "2958054314", "code": 2016, "fclass": "marketplace", "name": "PASAR WIYONO" }, "geometry": { "type": "Point", "coordinates": [ 105.1296471, -5.3734721 ] } },
{ "type": "Feature", "properties": { "fid": 2862.0, "osm_id": "3546140280", "code": 2501, "fclass": "supermarket", "name": "Putra Baru" }, "geometry": { "type": "Point", "coordinates": [ 105.2113571, -4.8987718 ] } },
{ "type": "Feature", "properties": { "fid": 2863.0, "osm_id": "3546140287", "code": 2501, "fclass": "supermarket", "name": "Candra" }, "geometry": { "type": "Point", "coordinates": [ 105.2126938, -4.9385191 ] } },
{ "type": "Feature", "properties": { "fid": 2864.0, "osm_id": "3546140288", "code": 2501, "fclass": "supermarket", "name": "Putra Baru" }, "geometry": { "type": "Point", "coordinates": [ 105.2120286, -4.9324264 ] } },
{ "type": "Feature", "properties": { "fid": 2969.0, "osm_id": "3679853389", "code": 2501, "fclass": "supermarket", "name": "Bandarjaya Plaza" }, "geometry": { "type": "Point", "coordinates": [ 105.2130983, -4.9349036 ] } },
{ "type": "Feature", "properties": { "fid": 3344.0, "osm_id": "3865015196", "code": 2501, "fclass": "supermarket", "name": "Toko Baru" }, "geometry": { "type": "Point", "coordinates": [ 105.076912, -4.6338972 ] } },
{ "type": "Feature", "properties": { "fid": 3418.0, "osm_id": "3950000540", "code": 2016, "fclass": "marketplace", "name": "Pasar Tempel Rajabasa" }, "geometry": { "type": "Point", "coordinates": [ 105.2347422, -5.3671618 ] } },
{ "type": "Feature", "properties": { "fid": 3423.0, "osm_id": "3952995116", "code": 2501, "fclass": "supermarket", "name": "Giant Express" }, "geometry": { "type": "Point", "coordinates": [ 105.2116233, -5.3990021 ] } },
{ "type": "Feature", "properties": { "fid": 3918.0, "osm_id": "4246748894", "code": 2016, "fclass": "marketplace", "name": "Pasar Adirejo" }, "geometry": { "type": "Point", "coordinates": [ 105.7372231, -5.4902776 ] } },
{ "type": "Feature", "properties": { "fid": 5117.0, "osm_id": "4601776893", "code": 2501, "fclass": "supermarket", "name": "Chandra karang" }, "geometry": { "type": "Point", "coordinates": [ 105.2606783, -5.4112038 ] } },
{ "type": "Feature", "properties": { "fid": 5241.0, "osm_id": "4658625012", "code": 2501, "fclass": "supermarket", "name": "Indomaret Simpang Perikanan" }, "geometry": { "type": "Point", "coordinates": [ 104.3764864, -4.3883138 ] } },
{ "type": "Feature", "properties": { "fid": 5249.0, "osm_id": "4658625268", "code": 2501, "fclass": "supermarket", "name": "Toko Amanda" }, "geometry": { "type": "Point", "coordinates": [ 104.3763267, -4.3890667 ] } },
{ "type": "Feature", "properties": { "fid": 5870.0, "osm_id": "4977733646", "code": 2016, "fclass": "marketplace", "name": "Pasar Perumnas Way Halim" }, "geometry": { "type": "Point", "coordinates": [ 105.2751888, -5.3768666 ] } },
{ "type": "Feature", "properties": { "fid": 6468.0, "osm_id": "5300368426", "code": 2501, "fclass": "supermarket", "name": "indomaret gisting atas" }, "geometry": { "type": "Point", "coordinates": [ 104.719794, -5.4382807 ] } },
{ "type": "Feature", "properties": { "fid": 6474.0, "osm_id": "5304489863", "code": 2016, "fclass": "marketplace", "name": "Tempat pelelangan ikan" }, "geometry": { "type": "Point", "coordinates": [ 104.5488104, -5.5233802 ] } },
{ "type": "Feature", "properties": { "fid": 6596.0, "osm_id": "5377211345", "code": 2501, "fclass": "supermarket", "name": "Indomaret Pramuka 1" }, "geometry": { "type": "Point", "coordinates": [ 105.2210012, -5.385775 ] } },
{ "type": "Feature", "properties": { "fid": 6661.0, "osm_id": "5447625001", "code": 2016, "fclass": "marketplace", "name": "Pasar Pungkalan" }, "geometry": { "type": "Point", "coordinates": [ 104.3253838, -5.3131544 ] } },
{ "type": "Feature", "properties": { "fid": 6730.0, "osm_id": "5545320880", "code": 2016, "fclass": "marketplace", "name": "pasar sukamarga" }, "geometry": { "type": "Point", "coordinates": [ 104.2643119, -5.2619018 ] } },
{ "type": "Feature", "properties": { "fid": 6774.0, "osm_id": "5630021723", "code": 2501, "fclass": "supermarket", "name": "Transmart" }, "geometry": { "type": "Point", "coordinates": [ 105.2818736, -5.382963 ] } },
{ "type": "Feature", "properties": { "fid": 7676.0, "osm_id": "6114945780", "code": 2016, "fclass": "marketplace", "name": "Pasar Fajar Baru" }, "geometry": { "type": "Point", "coordinates": [ 105.2823181, -3.9185878 ] } },
{ "type": "Feature", "properties": { "fid": 8502.0, "osm_id": "6738578200", "code": 2016, "fclass": "marketplace", "name": "Pasuruan" }, "geometry": { "type": "Point", "coordinates": [ 105.6827379, -5.7492243 ] } },
{ "type": "Feature", "properties": { "fid": 8512.0, "osm_id": "6738578220", "code": 2016, "fclass": "marketplace", "name": "Pasar Blambangan" }, "geometry": { "type": "Point", "coordinates": [ 105.6534448, -5.7308975 ] } },
{ "type": "Feature", "properties": { "fid": 8793.0, "osm_id": "6880548256", "code": 2016, "fclass": "marketplace", "name": "Pasar Banyumas" }, "geometry": { "type": "Point", "coordinates": [ 104.9175399, -5.2869238 ] } },
{ "type": "Feature", "properties": { "fid": 9844.0, "osm_id": "8323701332", "code": 2501, "fclass": "supermarket", "name": "Indomart Hanura" }, "geometry": { "type": "Point", "coordinates": [ 105.2368638, -5.5301282 ] } },
{ "type": "Feature", "properties": { "fid": 9854.0, "osm_id": "8326560765", "code": 2016, "fclass": "marketplace", "name": "Toko Wahyu (Bahan Bangunan)" }, "geometry": { "type": "Point", "coordinates": [ 105.2375765, -5.5324365 ] } },
{ "type": "Feature", "properties": { "fid": 9857.0, "osm_id": "8326572914", "code": 2016, "fclass": "marketplace", "name": "Warung Ogas" }, "geometry": { "type": "Point", "coordinates": [ 105.2370661, -5.5333651 ] } },
{ "type": "Feature", "properties": { "fid": 10531.0, "osm_id": "9549530857", "code": 2501, "fclass": "supermarket", "name": "Pasar Sidomulyo" }, "geometry": { "type": "Point", "coordinates": [ 105.5194397, -5.5865711 ] } },
{ "type": "Feature", "properties": { "fid": 16139.0, "osm_id": "9965521480", "code": 2501, "fclass": "supermarket", "name": "Service Center iPhone and Android by SatuJari ID" }, "geometry": { "type": "Point", "coordinates": [ 105.2506787, -5.3773513 ] } },
{ "type": "Feature", "properties": { "fid": 16426.0, "osm_id": "10137454045", "code": 2016, "fclass": "marketplace", "name": "Pasar Unit II Banjar Agung" }, "geometry": { "type": "Point", "coordinates": [ 105.222466, -4.2841787 ] } },
{ "type": "Feature", "properties": { "fid": 16719.0, "osm_id": "10603784130", "code": 2501, "fclass": "supermarket", "name": "Toko Geo" }, "geometry": { "type": "Point", "coordinates": [ 105.1049399, -4.5919215 ] } },
{ "type": "Feature", "properties": { "fid": 16840.0, "osm_id": "10765164783", "code": 2016, "fclass": "marketplace", "name": "Pasar SP5" }, "geometry": { "type": "Point", "coordinates": [ 105.0203375, -4.4500154 ] } },
{ "type": "Feature", "properties": { "fid": 17118.0, "osm_id": "11104858453", "code": 2016, "fclass": "marketplace", "name": "Pasar Punggur" }, "geometry": { "type": "Point", "coordinates": [ 105.27592, -5.039132 ] } },
{ "type": "Feature", "properties": { "fid": 18056.0, "osm_id": "12122327911", "code": 2501, "fclass": "supermarket", "name": "Konveksi Rika 86" }, "geometry": { "type": "Point", "coordinates": [ 105.272827, -5.3724304 ] } },
{ "type": "Feature", "properties": { "fid": 18445.0, "osm_id": "12497452932", "code": 2501, "fclass": "supermarket", "name": "Lampung city mall (LCM)" }, "geometry": { "type": "Point", "coordinates": [ 105.2802599, -5.4433152 ] } },
{ "type": "Feature", "properties": { "fid": 18994.0, "osm_id": "12979154682", "code": 2016, "fclass": "marketplace", "name": "Pasar Unit III Tri Dharma Wira Jaya" }, "geometry": { "type": "Point", "coordinates": [ 105.296805, -4.288301 ] } },
{ "type": "Feature", "properties": { "fid": 19119.0, "osm_id": "13089437705", "code": 2501, "fclass": "supermarket", "name": "Chamart" }, "geometry": { "type": "Point", "coordinates": [ 105.2651851, -5.4407046 ] } },
{ "type": "Feature", "properties": { "fid": 19139.0, "osm_id": "13120351075", "code": 2501, "fclass": "supermarket", "name": "pasar" }, "geometry": { "type": "Point", "coordinates": [ 105.2566668, -5.4382322 ] } },
{ "type": "Feature", "properties": { "fid": 20161.0, "osm_id": "13823615737", "code": 2016, "fclass": "marketplace", "name": "Gisting Bawah" }, "geometry": { "type": "Point", "coordinates": [ 104.7332048, -5.4200735 ] } }
]
}
